[
  {
    "name": "경북대학교병원",
    "lat": 35.8663,
    "lng": 128.6031,
    "tier": 1,
    "address": "대구광역시 북구 대학로 80"
  },
  {
    "name": "계명대학교 동산병원",
    "lat": 35.8667,
    "lng": 128.5778,
    "tier": 1,
    "address": "대구광역시 달서구 달구벌대로 1035"
  },
  {
    "name": "대구가톨릭대학교 칠곡가톨릭병원",
    "lat": 35.9348926,
    "lng": 128.5492676,
    "tier": 1,
    "address": "대구광역시 북구 칠곡중앙대로 440"
  },
  {
    "name": "대구가톨릭대학교병원",
    "lat": 35.8436077,
    "lng": 128.5679969,
    "tier": 1,
    "address": "대구광역시 남구 두류공원로17길 33"
  },
  {
    "name": "영남대학교병원",
    "lat": 35.8482251,
    "lng": 128.5819932,
    "tier": 1,
    "address": "대구광역시 남구 현충로 170"
  },
  {
    "name": "칠곡경북대학교병원",
    "lat": 35.9485,
    "lng": 128.5598,
    "tier": 1,
    "address": "대구광역시 북구 호국로 807"
  },
  {
    "name": "강남종합병원",
    "lat": 35.8901085,
    "lng": 128.6485845,
    "tier": 2,
    "address": "대구광역시 동구 동촌로 207"
  },
  {
    "name": "곽병원",
    "lat": 35.842,
    "lng": 128.582,
    "tier": 2,
    "address": "대구광역시 남구 대명로 176"
  },
  {
    "name": "구병원",
    "lat": 35.871,
    "lng": 128.612,
    "tier": 2,
    "address": "대구광역시 중구 달구벌대로 2195"
  },
  {
    "name": "나사렛종합병원",
    "lat": 35.8124114,
    "lng": 128.5182749,
    "tier": 2,
    "address": "대구광역시 달서구 월배로 97"
  },
  {
    "name": "대구굿모닝병원",
    "lat": 35.8318017,
    "lng": 128.5244744,
    "tier": 2,
    "address": "대구광역시 달서구 월곡로 225"
  },
  {
    "name": "대구보훈병원",
    "lat": 35.840841,
    "lng": 128.6387923,
    "tier": 2,
    "address": "대구광역시 수성구 청수로 239"
  },
  {
    "name": "대구의료원",
    "lat": 35.8628223,
    "lng": 128.5548422,
    "tier": 2,
    "address": "대구광역시 서구 평리로 157"
  },
  {
    "name": "대구파티마병원",
    "lat": 35.8427,
    "lng": 128.5363,
    "tier": 2,
    "address": "대구광역시 남구 대봉로 99"
  },
  {
    "name": "더블유병원",
    "lat": 35.8512909,
    "lng": 128.5092926,
    "tier": 2,
    "address": "대구광역시 달서구 달구벌대로 1750"
  },
  {
    "name": "드림종합병원",
    "lat": 35.8393753,
    "lng": 128.5668623,
    "tier": 2,
    "address": "대구광역시 남구 대명로 153"
  },
  {
    "name": "삼일병원",
    "lat": 35.858,
    "lng": 128.495,
    "tier": 2,
    "address": "대구광역시 서구 달구벌대로 1706"
  },
  {
    "name": "천주성삼병원",
    "lat": 35.8391996,
    "lng": 128.7092202,
    "tier": 2,
    "address": "대구광역시 수성구 달구벌대로 3420"
  }
]
